<?xml version='1.0' encoding='UTF-8'?>
<kml xmlns='http://www.opengis.net/kml/2.2'>
	<Document>
		<name>國民黨嘉義賄選實價登錄地圖</name>
		<description><![CDATA[先說好不打臉。http://i.imgur.com/NBOz1Gs.jpg<br>最新買票行情、完整實價登錄查詢、買票地區熱點、讓您掌握買票脈動！地方賄選快搜，實價登錄買票行情網。<br>當買票成為事實，揭露就是義務。<br>公開資訊不接受任何捐款，若有任何疏漏請洽mail:kmtend2016@gmail.com<br>國民黨不倒，台灣不會好。]]></description>
		<Folder>
			<name>國民黨嘉義立委翁重鈞買票實價登錄</name>
			<Placemark>
				<name>(太保市頂港子墘村)101年立委翁重鈞一票500元</name>
				<description><![CDATA[乙○○於民國101年嘉義縣第8屆立法委員選舉期間，為使不知情之第一選舉區立法委員候選人翁重鈞順利當選，基於對有投票權人交付賄賂而約其為投票權一定行使及預備對有投票權人交付賄賂而約其為投票權一定行使之犯意，為下列行<br> 為：（一）於101年1月1日（起訴書誤載為100年1月1日），在嘉義縣太保市頂港子墘村庄路上，以每票新臺幣（下同）500 元（起訴書誤載為500千元）之代價，共交付1,000元予有投票權之丙○○○，意要丙○○○及其有投票權之子丁○○<br> 於行使上開立法委員選舉投票權時，投票予翁重鈞擔任立法委員之一定行使，丙○○○明知乙○○所交付之金錢係賄選之對價，仍基於有投票權人收受賄賂之犯意，予以收受其中500元並許以投票權為一定行使願投票予翁重鈞並代為收受其餘500元，乙○○並囑丙○○○轉交其餘500元予有投票權之子丁○○，轉告其於行使上開立法委員選舉<br> 投票權時，投票予翁重鈞擔任立法委員之一定行使，預備對於有投票權人交付賄賂，惟丙○○○未及轉告乙○○交付賄款之事及轉交賄款予其有投票權之子丁○○。]]></description>
				<styleUrl>#icon-503-DB4436</styleUrl>
				<ExtendedData>
				</ExtendedData>
				<Point>
					<coordinates>120.295186,23.4455694,0.0</coordinates>
				</Point>
			</Placemark>
			<Placemark>
				<name>(水上鄉三鎮村)101年立委翁重鈞一票500元</name>
				<description><![CDATA[一、丁○○係中央選舉委員會公告民國101年第8屆立法委員選舉嘉義縣第一選區候選人翁重鈞之支持者，為使翁重鈞能順利當選，竟基於對於有投票權之人行求、期約及交付賄賂，而約其為投票權一定行使之單一犯意，在嘉義縣水上鄉三鎮村00號其經營之「聯發商店」內，以每票新臺幣（下同）5,00元之代價，為下列賄選行為：<br> (一)於101年1月8日上午某時，交付1,500元與有投票權人乙○○，用以賄賂乙○○並囑咐乙○○亦轉交與其他有投票權之家屬，共計 3票，約使乙○○與其家屬行使上開立法委員選舉投票權時，投票予翁重鈞；乙○○亦基於有投票權之人收受賄賂之犯意，暨與丁○○基於對於有投票權之人交付賄賂，而約其投票權為一定行使之犯意聯絡，當場收受並允諾之。惟乙○○並未將其中賄賂1,000 元交付與其有投票權之家屬，此部分僅止於預備階段。(二)再於101年1月9日晚上某時，交付3,000元與有投票權人戊○○，用以賄賂戊○○並囑咐戊○○亦轉交與其他有投票權之家屬，共計 6票，約使戊○○與其家屬行使上開立法委員選舉投票權時，投票予翁重鈞；戊○○亦基於有投票權之人收<br> 受賄賂之犯意，暨與丁○○基於對於有投票權之人交付賄賂，而約其投票權為一定行使之犯意聯絡，當場收受並允諾之。惟戊○○並未將其中賄賂2,500 元交付與其有投票權之家屬，此部分僅止於預備階段。(三)又於101年1月9日晚上某時，交付2,000元與有投票權人甲○○，用以賄賂甲○○並囑咐甲○○亦轉交與其他有投票權之家屬，共計 4票，約使甲○○與其家屬行使上開立法委員選<br> 舉投票權時，投票予翁重鈞；甲○○亦基於有投票權之人收受賄賂之犯意，暨與丁○○基於對於有投票權之人交付賄賂，而約其投票權為一定行使之犯意聯絡，當場收受並允諾之。惟甲○○並未將其中賄賂2,000 元交付與其有投票權之家屬，此部分僅止於預備階段。(四)另於101年1月9日晚上某時，提出6,000元與有投票權人施文立，用以賄賂施立文並囑咐施立文亦轉交與其他有投票權之<br> 家屬及左右鄰居，共計12票，惟因施文立意在檢舉，並無收受賄賂之真意，僅虛予收受並假意允諾之（施文立涉嫌部分，業經臺灣嘉義地方法院檢察署檢察官為不起訴處分），是就其個人所收受賄賂500 元部分，僅止於丁○○單方面之求，且因其未將其中賄賂5,500 元交付與其有投票權之家屬及左右鄰居，此部分丁○○僅止於預備階段。<br> (五)復於101年1月10日上午某時，交付 1,000元與有投票權人丙○○，用以賄賂丙○○並囑咐丙○○亦轉交與其他有投票權之家屬，共計 2票，約使丙○○與其家屬行使上開立法委員選舉投票權時，投票予翁重鈞；丙○○亦基於有投票權之人收受賄賂之犯意，暨與丁○○基於對於有投票權之人交付賄賂，而約其投票權為一定行使之犯意聯絡，當場收受並允諾之。惟丙○○並未將其中賄賂5,00元交付與其有投票權之家屬，此部分僅止於預備階段。二、嗣於101年1月12日，經臺灣嘉義地方法院檢察署檢察官指揮法務部調查局嘉義縣調查站偵辦而獲悉上情，並扣得乙○○、戊○○、甲○○、施文立主動交付之賄款共12,500元。]]></description>
				<styleUrl>#icon-503-DB4436</styleUrl>
				<ExtendedData>
				</ExtendedData>
				<Point>
					<coordinates>120.385201,23.4068018,0.0</coordinates>
				</Point>
			</Placemark>
			<Placemark>
				<name>(太保市)101年立委翁重鈞一票500元</name>
				<description><![CDATA[乙○○於民國一百零一年嘉義縣第八屆立法委員選舉期間，為使不知情之第一選區立法委員候選人翁重鈞順利當選，基於對有投票權人交付賄賂而約其為投票權一定行使及預備對有投票權人交付賄賂而約其為投票權一定行使之犯意，於一百零一年一月上旬某日，在甲○○位於嘉義縣太保市○○里○○路○○號住處前，以每票新臺幣（下同）五百元之代價，共交付一千元予有投票權之甲○○，意要甲○○及其有投票權之配偶林葉蔭，於行使上開立法委員選舉投票權時，投票予翁重鈞擔任立法委員之一定行使，甲○○明知乙○○所<br> 交付之金錢係賄選之對價，仍基於有投票權人收受賄賂之犯意，予以收受其中五百元並許以投票權為一定行使願投票予翁重鈞並代為收受其餘五百元，乙○○並囑甲○○轉交其餘五百元予有投票權之配偶林葉蔭，轉告其於行使上開立法委員選舉投票權時，投票予翁重鈞擔任立法委員之一定行使，預備對於有投票權人交付賄賂，惟甲○○未及轉告乙○○交付賄款之事及轉交賄款予其有投票權之配偶林葉蔭。嗣臺灣嘉義地方法院檢察署檢察官接獲線報後，通知乙○○、甲○○到案說明，乙○○、甲○○於偵查及審判中均自白而查獲<br> 上情，乙○○並主動交出賄賂現金一千元扣案。]]></description>
				<styleUrl>#icon-503-DB4436</styleUrl>
				<ExtendedData>
				</ExtendedData>
				<Point>
					<coordinates>120.3298188,23.486077,0.0</coordinates>
				</Point>
			</Placemark>
			<Placemark>
				<name>(太保市後潭)101年立委翁重鈞一票500元</name>
				<description><![CDATA[羅金珠因翁重鈞之助理曾協助其女應徵工作之故，認有積欠翁重鈞人情，適逢翁重鈞參選第八屆立法委員選舉，其為使不知情之選舉候選人翁重鈞於民國101年1月14日舉行之上開選舉能夠順利當選，竟基於對有投票權人交付賄賂而約其為<br> 投票權一定行使及預備對有投票權人交付賄賂而約其為投票權一定行使之犯意，明知林梅治戶籍內具有投票權人共有4人，於101年1月7日（星期六）上午10時許，前往林梅治位在嘉義縣太保市後潭菜市場販售衣物之攤位處，交付與具有<br> 投票權之林梅治新臺幣（下同）3,000元（包含羅金珠向林梅治買褲子750元，買票錢2,000元），意要林梅治及其戶籍內其餘有投票權之家屬二人（即林梅治之子陳仕展、林梅治之女陳姿樺），於行使上開立委選舉投票權時，投票予翁重<br> 鈞擔任立委之一定行使，林梅治已知悉羅金珠係翁重鈞之支持者，其所交付之金錢乃係賄選之對價，竟基於有投票權人收受賄賂之意，當場收受並予以同意為投票權之一定行使，另將剩餘250元找給羅金珠。惟林梅治並未將除自身所收受<br> 之500元以外之其餘1,000元賄款轉交及轉告其子女陳仕展、陳姿樺二人，因而上開未轉交及轉告部分僅止於預備階段。同時羅金珠又與林梅治共同基於對有投票權人交付賄賂而約其為投票權一定行使及預備對有投票權人交付賄賂而約其為<br> 投票權一定行使之犯意聯絡，羅金珠將其所提供上開2,000元扣除行賄林梅治及其家人共三票之1,500元後所剩之500元賄款部分，託由林梅治交給與其同戶籍內具有投票權之友人黃國太，林梅治並收下為應允之表示，二人就行賄黃國太已<br> 有默示合意後，林梅治復於101年1月9日（星期一）上午某時許，在其位於嘉義縣布袋鎮太平路市場內之擺攤處，將上開500元交付黃國太，並向黃國太表示此筆金額係羅金珠以每票500元之代價向黃國太行賄，意要黃國太於行使上開立<br> 委選舉投票權時，投票予翁重鈞擔任立委之一定行使。黃國太明知林梅治所交付之金錢係賄選之對價，竟基於有投票權人收受賄賂之意，當場收受並予以同意為投票權之一定行使<br> 。嗣經法務部調查局嘉義市調查站接報民眾檢舉而循線查悉上情。林梅治、黃國太於偵查中均自白上開犯罪，黃國太並於101年1月13日繳回已收受之賄款500元。]]></description>
				<styleUrl>#icon-503-DB4436</styleUrl>
				<ExtendedData>
				</ExtendedData>
				<Point>
					<coordinates>120.3452682,23.4552152,0.0</coordinates>
				</Point>
			</Placemark>
			<Placemark>
				<name>(義竹鄉)101年立委翁重鈞一票500元</name>
				<description><![CDATA[甲○○於民國一百零一年嘉義縣第八屆立法委員選舉期間，為使不知情之第一選區立法委員候選人翁重鈞順利當選，基於對有投票權人交付賄賂而約其為投票權一定行使及預備對有投票權人交付賄賂而約其為投票權一定行使之犯意，於一<br> 百零一年一月十三日下午三時許，以電話邀約曾康淑女（另由檢察官為緩起訴處分確定）至甲○○位於嘉義縣義竹鄉○○村○路○○○○號住處旁，曾康淑女嗣於同日下午三時三十分許到達該處時，甲○○即以每票新臺幣（下同）五百元之代價，共交付四千元予有投票權之曾康淑女，意要曾康淑<br> 女及其餘有投票權之家屬共八人，於行使上開立法委員選舉投票權時，投票予翁重鈞擔任立法委員之一定行使，曾康淑女明知甲○○所交付之金錢係賄選之對價，仍基於有投票權人收受賄賂之犯意，予以收受其中五百元並許以投票權為一<br> 定行使願投票予翁重鈞並代為收受其餘三千五百元，甲○○並囑曾康淑女轉交其餘三千五百元予有投票權之家屬共七人，轉告其於行使上開立法委員選舉投票權時，投票予翁重鈞擔任立法委員之一定行使，預備對於有投票權人交付賄賂。<br> 曾康淑女返家後，嗣於一百零一年一月十三日下午五時三十分許，將其中一千元轉交予其小叔曾連上（另由檢察官為緩起訴處分確定），意要曾連上及其有投票權之配偶蔡麗津於行使上開立法委員選舉投票權時，投票予翁重鈞擔任立法委<br> 員之一定行使，曾連上明知甲○○所交付之金錢係賄選之對價，仍基於有投票權人收受賄賂之犯意，予以收受其中五百元並許以投票權為一定行使願投票予翁重鈞並代為收受其餘五百元，曾康淑女並囑曾連上轉交其餘五百元予有投票權之<br> 配偶蔡麗津，轉告其於行使上開立法委員選舉投票權時，投票予翁重鈞擔任立法委員之一定行使。惟曾康淑女未及轉告甲○○交付賄款之事及轉交賄款予其餘有投票權之家屬（除曾連上外），曾連上亦未及轉告甲○○交付賄款之事及轉交<br> 賄款予其有投票權之配偶蔡麗津。嗣臺灣嘉義地方法院檢察署檢察官接獲線報後，通知曾康淑女、曾連上、甲○○到案說明，曾康淑女、曾連上、甲○○均於偵查中自白而查獲上情，曾康淑女、曾連上並各主動交出賄款三千元、一千元扣<br> 案。]]></description>
				<styleUrl>#icon-503-DB4436</styleUrl>
				<ExtendedData>
				</ExtendedData>
				<Point>
					<coordinates>120.2230453,23.3528942,0.0</coordinates>
				</Point>
			</Placemark>
			<Placemark>
				<name>(太保市)100年立委翁重鈞一票500元</name>
				<description><![CDATA[石新平因前曾受翁重鈞之幫助，乃在第8屆立法委員選舉中，支持早已登記參選嘉義縣第一選舉區選舉之翁重鈞，其為使翁重鈞順利當選，竟基於對有投票權之人行求、期約、交付賄賂，而約其為一定之行使之犯意，於民國100年12月底<br> 某日，在嘉義縣太保市○○里○○000號之3附近，向熟識之官石金鸞（起訴書誤載為官石金鶯）詢問後得知官石金鸞與夫官炳煌、子官宗毅、女官雪君共4人均設籍在嘉義縣太保市，屬嘉義縣第一選舉區，且均有投票權，石新平即示意要<br> 官石金鸞及其餘有投票權之家屬共4人，於101年1月14日第8屆立法委員選舉投票日，均投票予候選人翁重鈞，經官石金鸞應允後，石新平再以每票新臺幣（以下同）500元之代價，共交付2,000元予有投票權之官石金鸞（收受賄賂之部分<br> ，業經檢察官另為緩起訴處分），而約定其投票權為一定之行使。官石金鸞知悉石新平之意，即基於有投票權人收受賄賂之犯意，當場收受予以同意。惟石新平賄賂官石金鸞其餘家屬部分，因官石金鸞未及轉告及轉交賄款與其餘家屬，即<br> 於101年1月9日為警調查獲，故此部分僅止於預備賄賂之階段。石新平並於偵查中自白上開交付、預備交付賄賂之事實。]]></description>
				<styleUrl>#icon-503-DB4436</styleUrl>
				<ExtendedData>
				</ExtendedData>
				<Point>
					<coordinates>120.3258705,23.473009,0.0</coordinates>
				</Point>
			</Placemark>
			<Placemark>
				<name>(太保市)101年翁重鈞一票500元</name>
				<description><![CDATA[丁○○○係中央選舉委員會公告民國101年第8屆立法委員2號候選人翁重鈞之支持者，為使翁重鈞能順利當選，竟基於對於有投票權之人行求、期約及交付賄賂，而約其為一定之行使之單一犯意，約於101年1月8日（起訴書及併辦意旨書均誤載為100年）前10日間晚間，邀約戊○○○至其嘉義縣太保市○○里0鄰○○000號之住處內，將新臺幣(下同)11000元交付予投票權人戊○○○，以每票500元之代價向戊○○○及其家人（共計5票）賄選，要求其投票予嘉義縣立法委員候選人2號翁重鈞，而約定其投票權為一定之行使。戊○○○亦基於受賄之故意，於收受行賄現金後，同意投票予翁重鈞而許其投票權為一定之行使。]]></description>
				<styleUrl>#icon-503-DB4436</styleUrl>
				<ExtendedData>
				</ExtendedData>
				<Point>
					<coordinates>120.33702850000002,23.475843100000002,0.0</coordinates>
				</Point>
			</Placemark>
			<Placemark>
				<name>(水上鄉)101年立委翁重鈞一票500元</name>
				<description><![CDATA[犯罪事實部分，補充「林定輝係第8 屆立法委員選舉嘉義縣第1 選區候選人翁重鈞之支持者，為使不知情之上述候選人順利當選，竟基於對有投票權之人交付賄賂，而約其投票權為一定行使之犯意，於民國101 年1 月7 日下午4 時許，在<br> 有投票權人鄭竹抱位在嘉義縣水上鄉○○村○○街000 號（起訴書誤載為87巷6 號）住處，以每票新臺幣（下同）500元之代價，共交付2,000 元予鄭竹抱，要求鄭竹抱將其中1,500 元轉交與亦有上揭選舉投票權之鄭竹抱長子鄭居財、次子賴再添及長媳黎氏秋翠每人各500 元，並約定鄭竹抱及其上開家人應投票支持翁重鈞。鄭竹抱亦基於有投票權人收受賄賂之犯意，當場收受並允諾之，然鄭竹抱未為轉知，亦未將上揭賄款中1, 500元轉交其上開家人而逕自留用。嗣經民眾於101 年1 月8 日向法務部調查局嘉義縣調查站檢舉，... 。林定輝、鄭竹抱均於偵查中自白上開交付、收受、預備交付賄賂等情，鄭竹抱並主動繳交所收受之賄賂500 元、預備交付之賄賂1,500 元（共2,000 元）扣案。」等語。]]></description>
				<styleUrl>#icon-503-DB4436</styleUrl>
				<ExtendedData>
				</ExtendedData>
				<Point>
					<coordinates>120.4256058,23.4374191,0.0</coordinates>
				</Point>
			</Placemark>
			<Placemark>
				<name>(太保市安仁里)98年縣長翁重鈞一票○○元</name>
				<description><![CDATA[公訴意旨略以：被告丁○○係前太保市安仁里里長，明知立法委員翁重鈞係民國九十八年十二月五日投票之嘉義縣第十六屆縣長選舉之候選人，其為使翁重鈞能順利當選，竟基於對有投票權人行求不正利益之犯意，事先親自登門拜訪，於<br> 九十八年十一月二十八日中午某時，在嘉義縣太保市太保里太保三六之一○一號處，央請設籍於嘉義縣鹿草鄉松竹村十三鄰竹子腳一五一之二號而有投票權人之丙○○（另案為職權不起訴處分）及代為向其家中有投票權人（其妻乙○○、<br> 其父林新山、母林吳秀英）表示於年底選舉時投票支持翁重鈞云云，丁○○並表示若依期約投票，不會失禮數（意指以現金買票）之不正利益行求賄選，向丙○○等之有投票權人，約其於九十八年十二月五日行使投票權時，支持嘉義縣第十六屆縣長候選人翁重鈞，為投票權一定之行使，丙○○對此亦向丁○○點頭稱是表示同意，因認被告涉犯公職人員選舉罷免法第九十九條第一項之行求、期約不正利益罪嫌。]]></description>
				<styleUrl>#icon-503-DB4436</styleUrl>
				<ExtendedData>
				</ExtendedData>
				<Point>
					<coordinates>120.30342580000001,23.4475774,0.0</coordinates>
				</Point>
			</Placemark>
			<Placemark>
				<name>(鹿草鄉西井村)98年縣長翁重鈞，議員詹家甄，鄉長黃義興，一票2000元</name>
				<description><![CDATA[乙○○與甲○○夫妻2人於中華民國98年縣長、縣市議員暨鄉鎮市長選舉期間（下稱三合一選舉），為求國民黨籍縣長登記第2號之候選人翁重鈞、鹿草鄉鄉長登記第1號之候選人黃義興、縣議員登記第9號之候選人詹家甄順利當選，竟共同基於對有投票權人行求、期約、交付賄賂，而約其投票權為一定行使之集合犯意聯絡，由2人共同出資，分別為如下行為：（一）由乙○○於98年12月3日上午10時許，至嘉義縣鹿草鄉西井村21鄰鹿草543號施辰德住處，以每票新臺幣2000元之代價，交付現金4000元給於該次三合一選舉選具有投票權之施辰德（另經檢察官為緩起訴處分確定），要求施辰德於98年12月5日投票日分別投票支持前揭候選人黃義興、翁重鈞、詹家甄，及請施辰德將其中2,000元交付其妻施賴圓馨，並要施賴圓馨亦須投票支持前揭候選人。施辰德收<br> 受上開賄款後，於施賴圓馨返家時告知上情，施賴圓馨即向施辰德表示拒絕乙○○之上開賄賂。（二）由甲○○於98年12月3日下午5時許，至嘉義縣鹿草鄉西井村鹿草514號之劉林淑住處，以每票新臺幣2,000元之代價，交付現金4,000元給於該次三合一選舉選具有投票權之劉林淑（另經檢察官為緩起訴處分確定），要求劉林淑於98年12月5日投票日分別投票支持前揭3名候選人，及請劉林淑將其中2,000元交付其夫劉和聖，並要劉和聖亦須投票支持前揭候選人。劉林淑恥收受上開賄款後，並未告知劉和聖上情。嗣為嘉義<br> 地方法院檢察署檢察官循線查獲，並扣得施辰德收受之賄款4000元及劉林淑收受之賄款4,000元。]]></description>
				<styleUrl>#icon-503-DB4436</styleUrl>
				<ExtendedData>
				</ExtendedData>
				<Point>
					<coordinates>120.3003788,23.418833,0.0</coordinates>
				</Point>
			</Placemark>
			<Placemark>
				<name>(民雄鄉福樂村)98年縣長翁重鈞一票1000元</name>
				<description><![CDATA[甲○○因翁重鈞係民國98年12月5日投票選舉之第十六屆嘉義縣縣長選舉2號候選人，為使不知情之翁重鈞當選，乃基於對於有投票權之人交付賄賂，而約其為一定行使之集合犯意為以下犯行：<br>(一)甲○○於98年11月29日19時許，前往嘉義縣民雄鄉福樂村11鄰埤角299號劉瑞碧住處，以每票新臺幣（下同）1,000元之代價，交付2,000元予有投票權之劉瑞碧（公訴意旨誤載為陳敏子），囑咐劉瑞碧轉交有投票權之家屬楊濟鴻，並於縣<br> 長選舉投票予翁重鈞，劉瑞碧知悉上意，即基於有投票權人收受賄賂之犯意，當場收受予以同意（劉瑞碧所犯部分另經檢察官緩起訴處分）。惟劉瑞碧並未將其餘賄賂1,000元轉交楊濟鴻，此部分即止於預備階段。(二)甲○○又於98年11月29日19時30分許，前往嘉義縣民雄鄉福樂村11鄰埤角297號王麗華住處，以每票1,000元之代價，交<br> 付3,000元予有投票權之王麗華，囑咐王麗華轉交有投票權之家屬張富強、張弘達，並於縣長選舉投票予翁重鈞，王麗華知悉其意，即基於有投票權人收受賄賂之犯意，當場收受予以同意（王麗華所犯部分另經檢察官緩起訴處分）。惟王<br> 麗華並未將其餘賄賂2,000元轉交張富強、張弘達，此部分即止於預備階段。<br>(三)甲○○再於98年11月29日20時許，前往嘉義縣民雄鄉福樂村11鄰埤角298號陳敏子住處，以每票1,000元之代價，交付2,000元予有投票權之陳敏子，囑咐陳敏子轉交有投票權之家屬蔡明琮，並於縣長選舉投票予翁重鈞，陳敏子知悉上意，<br> 即基於有投票權人收受賄賂之犯意，當場收受予以同意（陳敏子所犯部分另經檢察官緩起訴處分）。惟陳敏子並未將其餘賄賂1,000元轉交蔡明琮，此部分即止於預備階段。嗣經警於98年11月30日循線查獲，劉瑞碧、王麗華、陳敏子主動<br> 繳回上開賄款共計7,000元，而悉上情。]]></description>
				<styleUrl>#icon-503-DB4436</styleUrl>
				<ExtendedData>
				</ExtendedData>
				<Point>
					<coordinates>120.4444456,23.5215752,0.0</coordinates>
				</Point>
			</Placemark>
			<Placemark>
				<name>(民雄鄉寮頂村)98年縣長翁重鈞一票500元</name>
				<description><![CDATA[甲○○為嘉義縣民雄鄉寮頂村19鄰鄰長。何連參則係址設嘉義縣民雄鄉寮頂村19鄰富義新村208號之成年人，係中華民國98年縣市長、縣市議員暨鄉鎮市長選舉之具有投票權人。甲○○為支持本屆嘉義縣長候選人翁重鈞順利當選，乃基於對有投票權之人交付賄賂，而約其為一定之行使之犯意，於民國98年12月2日上午，前往何連參上開住處，以每票新臺幣（下同）500元，4票共計2,000元之代價，將2,000元交予有投票權之何連參，要求何連參於選舉投票時須將票投與上開縣長候選人翁重鈞，並囑咐何連參轉交其妻何顏玉、其子何志育、兒媳官秀玫等3人各500元，並要渠等投票支持翁重鈞，而對何連參交付賄賂，並預備對於有投票權之何顏玉、何志育、官秀玫交付賄賂。何連參基於有投票權人收受賄賂之犯意，當場收受甲○○交付之2,000元並同意投票予縣長候選人翁重鈞（甲○○所涉妨害投票部分，另為緩起訴處分），然並未轉告此事，亦未將上開賄款交給其前揭不知情之何顏玉、何志育、官秀玫等3人。嗣警方據報並報請臺灣嘉義地方法院檢察署檢察官偵辦，何連參並於警方詢問時，主<br> 動繳回上開賄款而扣得現金2,000元，進而循線查獲上情。]]></description>
				<styleUrl>#icon-503-DB4436</styleUrl>
				<ExtendedData>
				</ExtendedData>
				<Point>
					<coordinates>120.4269791,23.5683534,0.0</coordinates>
				</Point>
			</Placemark>
			<Placemark>
				<name>(竹崎鄉獅埜村)98年縣長翁重鈞一票1000元</name>
				<description><![CDATA[甲○○為使屬地方自治團體公職人員選舉之嘉義縣第16屆縣長選舉候選人翁重鈞當選（尚乏證據證明前開候選人與甲○○有犯意聯絡），竟對於有投票權之人，基於以賄賂為對價，而約其等投票權為一定行使之概括集合犯意（俗稱買票）<br> ，於民國98年11月19日某時許，在嘉義縣竹崎鄉獅埜村13鄰圳頭坑22號住處，以每票新臺幣（下同）1,000元之代價，共交付3,000元與曾玲玲（經臺灣嘉義地方法院檢察署檢察官為緩起訴處分），向該有選舉投票權之曾玲玲買票，另要<br> 求曾玲玲轉交與其他亦有前揭選舉投票權之家屬，並約定曾玲玲與其家屬於同年12月5日行使上開縣長選舉投票權時，投票予翁重鈞，曾玲玲亦基於有投票權人收受賄賂之犯意，當場收受並允諾之。惟曾玲玲於收受後，僅在前揭住處，將<br> 其中1,000元轉交予其夫郭登福（另經臺灣嘉義地方法院檢察署檢察官為緩起訴處分），並告知上情，經郭登福應允後收受前揭賄款。嗣經偵查機關循線查獲，甲○○並於偵查中坦認前揭賄選買票行為而自白。]]></description>
				<styleUrl>#icon-503-DB4436</styleUrl>
				<ExtendedData>
				</ExtendedData>
				<Point>
					<coordinates>120.50791740000001,23.5298383,0.0</coordinates>
				</Point>
			</Placemark>
			<Placemark>
				<name>(義竹鄉東光村)97年縣長翁重鈞一票1000元</name>
				<description><![CDATA[丙○○係嘉義縣義竹鄉之鄉民代表，為第七屆立法委員選舉嘉義縣第一選區候選人翁重鈞之支持者。丙○○為使其所支持而不知情之翁重鈞順利當選，竟基於對於有投票權之人交付賄賂，而約其為一定之行使之犯意，於民國九十七年一月八日上午某時，前往甲○○於嘉義縣義竹鄉東光村東後寮一三○號其所經營之家庭美髮店內，以每票新臺幣（下同）一千元之代價，共交付五千元予有投票權之甲○○，意要甲○○及其餘有投票權之家屬李清哲、李鐘碧雲、李坤禎、李坤瑞等五人，於同年一月十二日行使上開立法委員選舉權時，投票予立法委員候選人翁重鈞。甲○○知悉丙○○之意，即基於有投票權人收受賄賂之犯意，當場收受予以同意。嗣警據報於九十七年一月十日通知甲○○接受詢問後，經甲○○於警、偵詢自白供述上情，始悉全情，並扣得甲○○主動交付其業已收受以及未及交付李清哲、李鐘碧雲、李坤禎、李坤瑞之現金五千元。]]></description>
				<styleUrl>#icon-503-DB4436</styleUrl>
				<ExtendedData>
				</ExtendedData>
				<Point>
					<coordinates>120.24561880000002,23.362862,0.0</coordinates>
				</Point>
			</Placemark>
			<Placemark>
				<name>(朴子市崁前里)96年立委翁重鈞一票1000元</name>
				<description><![CDATA[被告丙○○係第七屆立法委員選舉嘉義縣第一選區候選人翁重鈞之支持者，與其鄰居被告甲○○，為其所支持之翁重鈞順利當選，竟基於對於有投票權之人交付賄賂，而約其為一定之行使之犯意，於民國九十六年十二月十七日十三時三十分許，先前往被告甲○○址設嘉義縣朴子市崁前里崁前四十之二號居所，邀請被告甲○○及被告甲○○之妻乙○○參加次日之翁重鈞競選總部成立大會，隔天上午八時十分許，被告甲○○與其妻乙○○自行至翁重鈞競選總部參與造勢活動，並於同日十時許返家。被告丙○○於同日十三時許至被告甲○○上揭居所，以每票新臺幣（下同）五百元之代價，交付一千元給有投票權之被告甲○○，並表示該筆款項為走路工，一個人五百元，並要求被告甲○○及其餘有投票權之家屬乙○○等二人，於九十七年（起訴書誤載為同年）一月十二日行使上開立法委員選舉投票權時，投票予翁重鈞，被告甲○○知悉被告丙○○之意，即基於有投票權人收受賄賂之犯意，當場收受予以同意。惟除被告甲○○自身所收受之五百元以外之其餘賄款五百元，並未轉交乙○○，而持之購買食物而花用殆盡，次日甲○○告知乙○○收到「走路工」一票五百元，經乙○○追問，始告知係被告丙○○所交付，此部分即止於預備階段，因認被告丙○○向被告甲○○交付賄賂之行為，係犯公職人員選舉罷免法第九十九條第一項之對於有投票權之人，交付賄賂，而約其投票權為一定之行使罪嫌；又其預備向乙○○賄賂之行為，係犯同法條第二項、第一項之預備對於有投票權之人，交付賄賂，而約其投票權為一定之行使單純一罪嫌；另認被告甲○○收受賄賂之行為，係犯刑法第一百四十三條第一項之投票受賄<br> 罪嫌。]]></description>
				<styleUrl>#icon-503-DB4436</styleUrl>
				<ExtendedData>
				</ExtendedData>
				<Point>
					<coordinates>120.2353835,23.4417306,0.0</coordinates>
				</Point>
			</Placemark>
			<Placemark>
				<name>(嘉義縣東石鄉西崙村)97年立委翁重鈞一票1000元</name>
				<description><![CDATA[丁○○設籍在嘉義縣東石鄉西崙村十六鄰栗子崙七一三號，於民國九十七年一月十二日投票選舉之第七屆立法委員選舉為有投票權人，於九十六年十二月底某日十八時後之某時許，丙○基於對有投票權之人交付賄賂，而約其為一定之行使之犯意，交付同具犯意聯絡之庚○○賄款新臺幣（下同）三千元，由庚○○在上址以每票一千元之代價，交付三千元予丁○○，託其轉交有投票權之家屬唐王梅、唐國屏，囑其支持嘉義縣第一選區立法委員候選人翁重鈞，丁○○即基於有投票權人收受賄賂之犯意，當場予以同意收受，然並未將另<br> 二千元交付唐王梅、唐國屏。]]></description>
				<styleUrl>#icon-503-DB4436</styleUrl>
				<ExtendedData>
				</ExtendedData>
				<Point>
					<coordinates>120.1878119,23.4274963,0.0</coordinates>
				</Point>
			</Placemark>
			<Placemark>
				<name>(東石鄉西崙村)97年立委翁重鈞一票1000元</name>
				<description><![CDATA[本件犯罪事實：甲○○、乙○○設籍在嘉義縣東石鄉西崙村栗子崙六九七號，於民國九十七年一月十二日投票選舉之第七屆立法委員選舉為有投票權人。唐容於九十六年十二月底某日十八時後之某時許，基於對有投票權之人交付賄賂，而<br> 約其為一定之行使之犯意，交付同具犯意聯絡之陳新基賄款新臺幣（下同）六千元，以一票一千元之代價，囑其交付甲○○、乙○○，並要求轉交予有投票權之家屬顧文靜、鄭權朝、余金玲、鄭慶順等人，並投票予該次立法委員選舉嘉義<br> 縣第一選區二號候選人翁重鈞，陳新基即於同日至上址交付賄款六千元予甲○○、乙○○，並要求支持翁重鈞，其等均知悉陳新基之意，即基於有投票權人收受賄賂之犯意，當場收受予以同意，惟甲○○雖將金錢交付予其餘家屬，然未告<br> 知須支持何人。嗣經檢察官接獲檢舉，於九十七年一月八日十時五分許，指揮嘉義縣調查站，在唐容址設嘉義縣東石鄉西崙村栗子崙一六七號住所，實施逕行搜索，並扣得非供本次賄選所用之名冊一份，另傳訊唐振抱、鄭慶順、沃金、李<br> 黃素盆及莊玉柱等人，逕行搜索，再查扣陳新基交出之賄款六千元、唐振抱、莊玉柱、沃金、李黃素盆分別交出之賄款各一千元，始悉上情（有關唐容、陳新基、莊美惠、唐振抱、莊玉柱、沃金、李黃素盆犯公職人員選舉罷免法等案件及<br> 扣案之一萬元部分，本院另行審結）。]]></description>
				<styleUrl>#icon-503-DB4436</styleUrl>
				<ExtendedData>
				</ExtendedData>
				<Point>
					<coordinates>120.19025810000001,23.4207233,0.0</coordinates>
				</Point>
			</Placemark>
			<Placemark>
				<name>(朴子市德興里)96年立委翁重鈞一票1000元</name>
				<description><![CDATA[甲○○係嘉義縣朴子市德興里七鄰鄰長，為第七屆立法委員選舉嘉義縣第一選區候選人翁重鈞之支持者，與其宗親姪子庚○○（已死亡，另為不受理判決）共同為使不知情之候選人翁重鈞順利當選，由甲○○於民國九十六年十一月十九日<br> （星期一）上午八時五十分許，在嘉義縣朴子市農會警衛室，向戊○○表示請戊○○抄投票權人名冊，並於同年十二月下旬某時，夥同庚○○一同至戊○○位於嘉義縣朴子市德興里新吉庄八十號之一住處，一起請託戊○○抄名冊，甲○○、庚○○、戊○○乃於彼時共同謀議使翁重鈞當選立法委員<br> ，而共同為對於有選舉權之人交付賄賂，而約定以每票新臺幣（下同）一千元代價，向多數具有選舉權之人賄選，由甲○○、庚○○提供之資金、名單，由戊○○進行交付賄賂等內容之犯意聯絡。]]></description>
				<styleUrl>#icon-503-DB4436</styleUrl>
				<ExtendedData>
				</ExtendedData>
				<Point>
					<coordinates>120.2656817,23.4741702,0.0</coordinates>
				</Point>
			</Placemark>
			<Placemark>
				<name>(東石鄉西崙村)96年立委翁重鈞一票1000元</name>
				<description><![CDATA[丁○係嘉義縣東石鄉西崙村村長，因翁重鈞係民國九十七年一月十二日投票選舉之第七屆立法委員選舉嘉義縣第一選區候選人，為使不知情之翁重鈞當選，分別與辛○○、庚○○為以下行為：<br>(一)丁○基於對於有投票權之人交付賄賂，而約其為一定之行使之犯意，於九十六年十二月底某日十八時許，前往嘉義縣東石鄉西崙村十六鄰栗子崙七０九號辛○○住處，以每票新臺幣（下同）一千元之代價，交付六千元予有投票權之辛○○<br> ，囑咐辛○○轉交有投票權之家屬陳甲○○、陳亮、陳明、陳美麗、陳寶琴等人，並於立法委員選舉投票時，投票予翁重鈞，辛○○知悉上意，即基於有投票權人收受賄賂之犯意，當場收受予以同意。惟辛○○並未將其餘賄賂五千元<br> 轉交陳甲○○等人，此部分即止於預備階段。<br>(二)丁○復再基於對於有投票權之人交付賄賂，而約其為一定之行使之各別犯意，於同日再交付九千元予具有犯意聯絡之辛○○，要求辛○○轉交戊○○及其家屬三千元、壬○○、癸○○及其家屬六千元，並告知須支持二號候選人翁重鈞，辛<br> ○○旋於同日十九時許，先至嘉義縣東石鄉西崙村十六鄰栗子崙七一三號戊○○住處，以每票一千元之代價，交付三千元予戊○○，託其轉交有投票權之家屬唐王梅、唐國屏，囑其支持翁重鈞，另再於同日某時許，復至壬○○、癸○○址設在嘉義縣東石鄉西崙村栗子崙六九七號之住所，交付六千<br> 元予壬○○、癸○○，並要求轉交予有投票權之家屬顧文靜、鄭權朝、余金玲、鄭慶順等人，亦囑投票予二號候選人翁重鈞，戊○○及壬○○、癸○○均知悉辛○○之意，即基於有投票權人收受賄賂之犯意，收受予以同意（戊○○及壬○○、癸○○涉犯有投票權人收受賄賂罪嫌部分，本院另行審<br> 結）。惟戊○○並未將賄款二千元轉交唐玉梅、唐國屏，壬○○則將金錢交付予其餘家屬，惟未告知須支持何人，此部分亦止於預備階段。<br>(三)辛○○於九十七年一月初某日某時，行經癸○○址設嘉義縣東石鄉西崙村栗子崙六九七號住所，癸○○告知其弟鄭慶順之越南籍配偶陳蓮和已取得我國身分證等語，辛○○再另行起意，基於對於有投票權之人交付賄賂，而約其為一定之行<br> 使之犯意，自行出資交付一千元予癸○○，囑其轉交陳蓮和，並投票支持翁重鈞，惟癸○○並未交付予陳蓮和，此部分即止於預備階段。<br>(四)丁○復再行起意，基於對於有投票權之人交付賄賂，而約其為一定之行使之各別犯意，於九十七年一月五日某時許，在庚○○址設嘉義縣東石鄉西崙村栗子崙三三一號住所，交付三千元予庚○○，要求庚○○轉交丙○、乙○○○及己○○<br> ，並囑咐庚○○以手勢比出二號或以指出選舉公報上之二號候選人予丙○、乙○○○及己○○等人即可；庚○○收受後旋於次日某時許，分別至丙○址設嘉義縣東石鄉西崙村十六鄰栗子崙三三七號住所、乙○○○址設嘉義縣東石鄉西崙村栗子崙三五０號住所及利用己○○至其住所訪視之機會，分<br> 別交付一千元予有投票權之丙○、乙○○○及己○○，並向乙○○○以手勢比出二號及向己○○指出選舉公報上之二號照片，示意丙○、乙○○○及己○○，於立法委員選舉時投票予翁重鈞，丙○、乙○○○及己○○知悉庚○○之意，即基於有投票權人收受賄賂之犯意，均當場收受予以同意（丙○、乙○○○及己○○涉犯有投票權人收受賄賂罪嫌部分，<br> 本院另行審結）。嗣經檢察官接獲檢舉，於九十七年一月八日十時五分許，指揮嘉義縣調查站，在丁○址設嘉義縣東石鄉西崙村栗子崙一六七號住所，實施逕行搜索，並扣得非供本次賄選所用之名冊一份，並傳訊戊○○、鄭慶順、丙○、乙○○○及己○○等人，逕行搜索，再查扣辛○○交出之賄款六千元、戊○○、己○○、丙○、乙○○○分別交出之賄款各一千元，始悉上情。]]></description>
				<styleUrl>#icon-503-DB4436</styleUrl>
				<ExtendedData>
				</ExtendedData>
				<Point>
					<coordinates>120.20223140000002,23.4232435,0.0</coordinates>
				</Point>
			</Placemark>
			<Placemark>
				<name>(義竹鄉義竹村)97年立委翁重鈞一票1000元</name>
				<description><![CDATA[乙○○係中央選舉委員會於民國九十七年一月一日公告，第七屆立法委員選舉嘉義縣第一選區第二號候選人翁重鈞之支持者，其因欠立法委員翁重鈞人情，且在綽號「生仔」之王員生（另由警方追查中）拜託幫忙拉票下，為使其所支持之<br> 翁重鈞能順利當選，竟基於對於有投票權之人交付賄賂，而約其為一定之行使之犯意，於九十七年一月九日中午十二時許，前往設籍在嘉義縣義竹鄉義竹村義竹四十五號具有上揭選舉投票權之甲○○，位於嘉義縣義竹鄉義竹村三十九號居<br> 處內，以每票新臺幣（下同）一千元之代價，共交付二千元與甲○○，要求甲○○轉交其中一千元與甲○○設籍同址亦有上揭選舉投票權之妻翁黃秋蘭，並約定甲○○與翁黃秋蘭於同年月十二日行使上開立法委員選舉投票權時，投票予翁重鈞，甲○○亦基於有投票權人收受賄賂之犯意，當場收受<br> 並允諾之，然甲○○未將賄款轉交予翁黃秋蘭而逕自收下花用。嗣警方於同年月十日據報通知乙○○及甲○○到案，二人始供出上情，並均於偵查中自白上開交付、預備交付及收受賄賂之事實。]]></description>
				<styleUrl>#icon-503-DB4436</styleUrl>
				<ExtendedData>
				</ExtendedData>
				<Point>
					<coordinates>120.2556396,23.3355572,0.0</coordinates>
				</Point>
			</Placemark>
			<Placemark>
				<name>(朴子市新寮里)97年立委翁重鈞一票1000元</name>
				<description><![CDATA[壬○○係中華民國第7屆立法委員嘉義縣第1選區登記第2號候選人翁重鈞之友人，其為協助不知情之翁重鈞順利當選，竟基於對於有投票權之人交付賄賂，而約其為一定之行使之犯意，由壬○○自行於民國97年1月8日從其於嘉義縣朴子市農會（下稱朴子市農會）所開立之00000000000000號帳戶中提領現金新臺幣（下同）20,000元後，於97年1月10日下午15 時26分許，攜帶前開現金至鄰居丙○○位於嘉義縣朴子市新寮里新寮65之13號之住處門口，交付丙○○現金11,000<br> 元，約定以每票1,000元之代價，欲向丙○○、丙○○之三嫂戊○○○與丙○○之二嫂乙○○等3戶全家買票賄選，並請丙○○代為轉交賄款給其家人、戊○○○、乙○○等人及渠等家人，而為下列賄選買票之行為：]]></description>
				<styleUrl>#icon-503-DB4436</styleUrl>
				<ExtendedData>
				</ExtendedData>
				<Point>
					<coordinates>120.23931029999999,23.4519082,0.0</coordinates>
				</Point>
			</Placemark>
			<Placemark>
				<name>(義竹鄉)97年立委翁重鈞一票1000元</name>
				<description><![CDATA[甲○○係第7屆立法委員選舉嘉義縣第1選區候選人翁重鈞之支持者，為使翁重鈞順利當選，竟基於對於有投票權之人交付賄賂，而約其投票權為一定行使之犯意，自行出資新臺幣（下同）3千元，欲以每票1千元之賄款為翁重鈞賄選，於民<br> 國97年1月8日15時許，在嘉義縣義竹鄉○○村○○○村路旁農田，得知乙○○○及其夫翁文茂、其媳李秋雯設於同一戶籍，共計3人有投票權後，即交付1千元之賄款予乙○○○，並告知乙○○○於上開立法委員選舉時，行使投票權投票予翁重鈞，乙○○○收受後允諾投票支持翁重鈞，甲○○並同<br> 時交付2千元之賄款予乙○○○，請求其代為轉交予翁文茂、李秋雯，及代為轉告投票予翁重鈞，預備對於翁文茂、李秋雯交付賄賂，而約定其等投票予翁重鈞為一定之行使，惟乙○○○返家後並未轉交及告知翁文茂、李秋雯。嗣於97年<br> 1月10日許，經臺灣嘉義地方法院檢察署檢察官指揮嘉義縣警察局布袋分局循線查悉上情，扣得乙○○○主動交付其收受之賄款3千元，甲○○、乙○○○並於偵查中自白上情。]]></description>
				<styleUrl>#icon-503-DB4436</styleUrl>
				<ExtendedData>
				</ExtendedData>
				<Point>
					<coordinates>120.21246679999999,23.3507666,0.0</coordinates>
				</Point>
			</Placemark>
			<Placemark>
				<name>(朴子市竹村里)96年立委翁重鈞一票2000元</name>
				<description><![CDATA[乙○○固於第二次警、偵詢時坦承案發當晚（96年12月31日）9時許，與綽號「阿輝」之被告甲○○在社區商店內喝酒，飲畢，2人共同前往被告甲○○住處，進入門口後，由褲子口袋拿出2000元給被告甲○○，並要被告甲○○1票投給翁重鈞]]></description>
				<styleUrl>#icon-503-DB4436</styleUrl>
				<ExtendedData>
				</ExtendedData>
				<Point>
					<coordinates>120.2484512,23.440293400000005,0.0</coordinates>
				</Point>
			</Placemark>
			<Placemark>
				<name>(水上鄉寬士村)97年立委翁重鈞一票1500元</name>
				<description><![CDATA[丙○○係嘉義縣水上鄉寬士村村長，為第七屆立法委員選舉嘉義縣第一選區候選人翁重鈞之支持者，與設籍住居嘉義縣水上鄉寬士村崎子頭31號之108之周天勝、乙○○為鄰居關係，竟為使不知情之翁重鈞順利當選，基於對於有投票權之<br> 人交付賄賂，而約其為一定之行使之犯意，於民國97年1月2日下午5時30分許，前往嘉義縣水上鄉寬士村崎子頭31之108號周天勝及乙○○夫婦住處，以每票新臺幣（下同）1500元之代價，交付6千元給有投票權之乙○○，意要乙○○及其餘有投票權之家屬周天勝、周啟仁、洪雅青等4人，於同年1月12日行使上開立法委員選舉投票權時，投票予翁重鈞，乙○○知悉丙○○之意，即基於有投票權人收受賄賂之犯意，當場收受予以同意。惟除乙○○自身所收受之1500元以外之其餘賄款4500元，乙○○並未轉交周天勝、周啟仁及洪雅青等人，而係於同日晚間前往全家便利商店水上鎮安店，繳付4283元電費及860元水費，此部分即止於預備階段。經警於同年月3日中午12時許，搜索丙○○位於嘉義縣水上鄉寬士村崎子頭31號之50住處，扣得翁重鈞競選服務處志工背心1<br> 件；另於同日下午12時40分許，搜索乙○○上開住處，扣得電費通知及收據2紙、水費通知及收據1紙，乙○○主動交付現金6千元扣案及於偵查中自白，始悉上情。]]></description>
				<styleUrl>#icon-503-DB4436</styleUrl>
				<ExtendedData>
				</ExtendedData>
				<Point>
					<coordinates>120.4271293,23.450648300000005,0.0</coordinates>
				</Point>
			</Placemark>
			<Placemark>
				<name>(水上鄉粗溪村)93年立委翁重鈞一票1000元</name>
				<description><![CDATA[乙○○○前因其子遭學校退學事件，曾請託翁重鈞出面加以協調，使其子免遭退學處分，而積欠翁重鈞人情，嗣得知翁重鈞參與第六屆區域立法委員選舉，乃為償還人情，使翁重鈞能順利當選，即自行出資預備交付之賄款新臺幣（下同）五<br> 千元，並思以每票五百元之賄款為翁重鈞賄選，遂基於對於有投票權之人交付賄賂，而約其投票權為一定行使之概括犯意，先於民國九十三年十二月九日上午九時多，前往其鄰居甲○○○嘉義縣水上鄉粗溪村粗溪二十之一五七號住處，得知<br> 甲○○○及家人莊文賓、莊薪曉、吳雅音與莊貴麟計五人有投票權後，即交付五百元賄款予甲○○○，甲○○○收受後亦允諾投票支持翁重鈞，乙○○○並同時交付二千元之賄款予甲○○○，請求甲○○○代為轉交予莊文賓、莊薪曉、吳雅<br> 音及莊貴麟，及代為轉告投票予翁重鈞，預備對於其等交付賄賂，而約定其等投票予翁重鈞為一定之行使，惟甲○○○返家後並未轉交予前揭家人。旋乙○○○又於同日前往友人林豐玉（音譯）住處，預備對於林豐玉及其家人等二人之有投<br> 票權之人交付賄賂，而約定其等投票予翁重鈞為一定之行使，適林豐玉外出不在上開住處，未能該一千元之賄款交付予林豐玉，乃欲再預備對於其他有投票權之人交付賄賂，而約定其等投票予翁重鈞為一定之行使。嗣於同年十二月十日經檢<br> 察官指揮司法警察查獲上情，並扣得乙○○○前開預備交付賄賂之現金二千五百元、甲○○○所收受之賄賂現金五百元及乙○○○託甲○○○轉交之預備交付賄賂現金二千元。]]></description>
				<styleUrl>#icon-503-DB4436</styleUrl>
				<ExtendedData>
				</ExtendedData>
				<Point>
					<coordinates>120.39569380000002,23.4497034,0.0</coordinates>
				</Point>
			</Placemark>
			<Placemark>
				<name>(朴子市雙溪里)90年縣長翁重鈞一票1500元</name>
				<description><![CDATA[案依據偵卷所附之賄選情資、嘉義縣調查站調查報告（見九十年度選他字第二五０號卷、九十年度偵字第七八六０號偵查卷第一二頁）所示：「案係接獲線報指稱：被告將自九十年十一月三十日下午五時許，以每票一千五百元之現金為翁重鈞、李雅景買票賄選」]]></description>
				<styleUrl>#icon-503-DB4436</styleUrl>
				<ExtendedData>
				</ExtendedData>
				<Point>
					<coordinates>120.2773118,23.4878287,0.0</coordinates>
				</Point>
			</Placemark>
			<Placemark>
				<name>(朴子市大鄉里)90年縣長翁重鈞一票100元</name>
				<description><![CDATA[被告戊○○係嘉義縣朴子市大鄉里里長，基於對有投票權之人交付賄賂，而約定投票權為一定行使之犯意，於台灣省第十四屆嘉義縣長選舉競選<br> 期間，為使嘉義縣長侯選人翁重鈞得以順利當選，竟於民國九十年十一月二日下午，乘侯選人翁重鈞將於當日晚上假嘉義縣朴子市稻江管理學院舉辦造勢晚會之便，在大鄉里內，以每票新台幣（下同）一百元之代價，向設籍該里具有投票權之里民即被告丙○○期約參加該造勢晚會，並默示約為投票予侯選人翁重鈞，丙○○應允後，竟又基於與戊○○共同犯意之聯絡，於返回住處後，另行邀約設籍同里具有投票權之里民即被告甲○○、乙○○、丁○○及不詳姓名綽號為「義明」等四人，告以日後支付一百元之代價，約為參加該造勢晚會，並均默示允為投票予侯選人翁重鈞。同日下午五或六時許，丙○○、甲○○、乙○○及丁○○等四人在大鄉里內之「水來公」廟前，搭乘由戊○○預為備置之車輛接送至會場，戊○○則另行驅車前往，繼於會場期間，除參與人手持縣長侯選人翁重鈞之旗幟外，並高呼「翁重鈞當選！」。]]></description>
				<styleUrl>#icon-503-DB4436</styleUrl>
				<ExtendedData>
				</ExtendedData>
				<Point>
					<coordinates>120.2540731,23.4608056,0.0</coordinates>
				</Point>
			</Placemark>
			<Placemark>
				<name>(東石鄉蔦松村)90年縣長翁重鈞一票500元</name>
				<description><![CDATA[甲○○為使不知情之嘉義縣選舉區立法委員候選人李雅景、縣長候選人翁重鈞當選，竟基於概括犯意，自備現金新臺幣（下同）一千元一百九十二張、五百元二十九張，於九十年十一月二十九日晚上七時許攜往該村湖底二十一之六號有投票權人吳漆淑宜住處，交付五百元予無投票權之胡志明即吳漆淑宜之母（業經不起訴處分），囑其代為交付吳漆淑宜，預備約其投票支持李雅景、翁重鈞]]></description>
				<styleUrl>#icon-503-DB4436</styleUrl>
				<ExtendedData>
				</ExtendedData>
				<Point>
					<coordinates>120.2193117,23.473442,0.0</coordinates>
				</Point>
			</Placemark>
			<Placemark>
				<name>(太保市梅埔里)94年立委翁重鈞買票5000，4000，6000元</name>
				<description><![CDATA[一、本件犯罪事實引用檢察官聲請簡易判決處刑書之記載（如附件）。<br>二、上開犯罪事實，有（一）、被告等於偵查及本院審理中之自白。（二）扣押第6屆立法委員選舉臺灣省嘉義縣太保市梅埔里選舉人名冊影本3紙在卷，及賄賂現金新台幣15000暨候<br> 選人翁重鈞選舉文宣25張扣案可資佐證，事證明確，被告4人罪行可堪認定。<br>三、核被告丁○○分別向被告甲○○、乙○○○、丙○○○賄賂所為，係犯公職人員選舉罷免法第90條之1第1項對於有投票權之人，交付賄賂，而約其投票權為一定之行使罪；又其預備向被告甲○○、乙○○○、丙○○○之家人賄賂部分，所為均在預備階段，核其所為係犯公職人員選舉罷免法第90條<br> 之1第2項預備對於有投票權之人，交付賄賂，而約其投票權為一定之行使罪。又核被告甲○○、乙○○○、丙○○○等所為，係犯刑法143條第1項之有投票權之人，收受賄賂，而許以其投票權為一定之行使罪。四、被告丁○○分別交付甲○○5000元、乙○○○4000元、丙○○○6000元，係同時觸犯公職人員選舉罷免法第90條之1第1項交付賄賂及同條第2項預備交付賄賂之罪名，因均係侵害<br> 同一社會法益，並未侵害數法益，應僅論以情節較重之交付賄賂罪一罪，檢察官認係想像競合犯，容有誤會。又其多次交付賄賂之犯行，時間緊接，犯罪構成要件相同，顯係基於概括犯意反覆為之，為連續犯，應論以交付賄賂一罪，並加<br> 重其刑。]]></description>
				<styleUrl>#icon-503-DB4436</styleUrl>
				<ExtendedData>
				</ExtendedData>
				<Point>
					<coordinates>120.3406119,23.4365922,0.0</coordinates>
				</Point>
			</Placemark>
			<Placemark>
				<name>(東石鄉蔦松)88年縣長翁重鈞一票500元</name>
				<description><![CDATA[、甲○○係嘉義縣東石鄉蔦松村村長，曾因違反水利法案件，經本院於民國八十八年七月三十一日以八十七年度訴字第六三九號判決處有期徒刑七月，緩刑二年，<br> 於八十八年八月二十七日確定，素行欠佳（尚不構成累犯）。值第五屆立法委員暨第十四屆縣市長選舉，甲○○為使不知情之嘉義縣選舉區立法委員候選人李雅景、縣長候選人翁重鈞當選，竟基於概括犯意，自備現金新臺幣（下同）一千元<br> 一百九十二張、五百元二十九張，於九十年十一月二十九日晚上七時許攜往該村湖底二十一之六號有投票權人吳漆淑宜住處，交付五百元予無投票權之胡志明即吳漆淑宜之母（業經不起訴處分），囑其代為交付吳漆淑宜，預備約其投票支持李雅景、翁重鈞，再前往該村湖底二十一之四號有投票權人吳蔡玉燕（亦經不起訴處分）住處，交付一千元予吳蔡玉燕，約其與配偶吳瑞欽均投票支持該二名候選人，旋為臺灣嘉義地方法院檢察署檢察官指揮法務部調查局嘉義縣調查站調查員在蔦松村湖底路旁查獲，並分自甲○○身上、車上及蔦松村六五之四號住處扣得預備交付之賄賂現金一千元一百九十一張、五百元二十八張與非供賄賂所用之現金一百元三張、通訊錄、農民曆、旅遊名單、危機處理小組名單、候選人翁重鈞文宣資料、候選人李雅景口香糖，及自胡志明住處扣得甲○○交付之現金五百元，自吳蔡玉燕住處扣得甲○○交付之現金一千元。]]></description>
				<styleUrl>#icon-503-DB4436</styleUrl>
				<ExtendedData>
				</ExtendedData>
				<Point>
					<coordinates>120.21441939999998,23.4793074,0.0</coordinates>
				</Point>
			</Placemark>
		</Folder>
		<Folder>
			<name>台中消波塊(施工中)</name>
			<Placemark>
				<name>點 1</name>
				<styleUrl>#icon-503-DB4436-nodesc</styleUrl>
				<ExtendedData>
				</ExtendedData>
				<Point>
					<coordinates>120.5768394,24.3001695,0.0</coordinates>
				</Point>
			</Placemark>
			<Placemark>
				<name>點 2</name>
				<styleUrl>#icon-503-DB4436-nodesc</styleUrl>
				<ExtendedData>
				</ExtendedData>
				<Point>
					<coordinates>120.5734919,24.2983704,0.0</coordinates>
				</Point>
			</Placemark>
			<Placemark>
				<name>點 3</name>
				<styleUrl>#icon-503-DB4436-nodesc</styleUrl>
				<ExtendedData>
				</ExtendedData>
				<Point>
					<coordinates>120.57074540000002,24.2962584,0.0</coordinates>
				</Point>
			</Placemark>
			<Placemark>
				<name>點 4</name>
				<styleUrl>#icon-503-DB4436-nodesc</styleUrl>
				<ExtendedData>
				</ExtendedData>
				<Point>
					<coordinates>120.5714321,24.292503400000005,0.0</coordinates>
				</Point>
			</Placemark>
			<Placemark>
				<name>點 5</name>
				<styleUrl>#icon-503-DB4436-nodesc</styleUrl>
				<ExtendedData>
				</ExtendedData>
				<Point>
					<coordinates>120.5831051,24.3013431,0.0</coordinates>
				</Point>
			</Placemark>
			<Placemark>
				<name>點 6</name>
				<styleUrl>#icon-503-DB4436-nodesc</styleUrl>
				<ExtendedData>
				</ExtendedData>
				<Point>
					<coordinates>120.5865383,24.299152500000005,0.0</coordinates>
				</Point>
			</Placemark>
			<Placemark>
				<name>點 7</name>
				<styleUrl>#icon-503-DB4436-nodesc</styleUrl>
				<ExtendedData>
				</ExtendedData>
				<Point>
					<coordinates>120.5885983,24.297118700000002,0.0</coordinates>
				</Point>
			</Placemark>
			<Placemark>
				<name>點 8</name>
				<styleUrl>#icon-503-DB4436-nodesc</styleUrl>
				<ExtendedData>
				</ExtendedData>
				<Point>
					<coordinates>120.57392120000002,24.2910167,0.0</coordinates>
				</Point>
			</Placemark>
			<Placemark>
				<name>點 9</name>
				<styleUrl>#icon-503-DB4436-nodesc</styleUrl>
				<ExtendedData>
				</ExtendedData>
				<Point>
					<coordinates>120.59040069999999,24.2943023,0.0</coordinates>
				</Point>
			</Placemark>
			<Placemark>
				<name>點 10</name>
				<styleUrl>#icon-503-DB4436-nodesc</styleUrl>
				<ExtendedData>
				</ExtendedData>
				<Point>
					<coordinates>120.5764104,24.2894525,0.0</coordinates>
				</Point>
			</Placemark>
			<Placemark>
				<name>點 11</name>
				<styleUrl>#icon-503-DB4436-nodesc</styleUrl>
				<ExtendedData>
				</ExtendedData>
				<Point>
					<coordinates>120.5787276,24.288669800000005,0.0</coordinates>
				</Point>
			</Placemark>
			<Placemark>
				<name>點 12</name>
				<styleUrl>#icon-503-DB4436-nodesc</styleUrl>
				<ExtendedData>
				</ExtendedData>
				<Point>
					<coordinates>120.5849074,24.300404,0.0</coordinates>
				</Point>
			</Placemark>
			<Placemark>
				<name>點 13</name>
				<styleUrl>#icon-503-DB4436-nodesc</styleUrl>
				<ExtendedData>
				</ExtendedData>
				<Point>
					<coordinates>120.58842650000001,24.2925815,0.0</coordinates>
				</Point>
			</Placemark>
			<Placemark>
				<name>點 14</name>
				<styleUrl>#icon-503-DB4436-nodesc</styleUrl>
				<ExtendedData>
				</ExtendedData>
				<Point>
					<coordinates>120.58628080000001,24.2910167,0.0</coordinates>
				</Point>
			</Placemark>
			<Placemark>
				<name>點 15</name>
				<styleUrl>#icon-503-DB4436-nodesc</styleUrl>
				<ExtendedData>
				</ExtendedData>
				<Point>
					<coordinates>120.5826759,24.2874962,0.0</coordinates>
				</Point>
			</Placemark>
			<Placemark>
				<name>點 16</name>
				<styleUrl>#icon-503-DB4436-nodesc</styleUrl>
				<ExtendedData>
				</ExtendedData>
				<Point>
					<coordinates>120.5802727,24.3022035,0.0</coordinates>
				</Point>
			</Placemark>
			<Placemark>
				<name>點 17</name>
				<styleUrl>#icon-503-DB4436-nodesc</styleUrl>
				<ExtendedData>
				</ExtendedData>
				<Point>
					<coordinates>120.58473590000001,24.2890608,0.0</coordinates>
				</Point>
			</Placemark>
			<Placemark>
				<name>點 18</name>
				<styleUrl>#icon-503-DB4436-nodesc</styleUrl>
				<ExtendedData>
				</ExtendedData>
				<Point>
					<coordinates>120.56653970000002,24.2909386,0.0</coordinates>
				</Point>
			</Placemark>
			<Placemark>
				<name>點 19</name>
				<styleUrl>#icon-503-DB4436-nodesc</styleUrl>
				<ExtendedData>
				</ExtendedData>
				<Point>
					<coordinates>120.56868550000002,24.2892174,0.0</coordinates>
				</Point>
			</Placemark>
			<Placemark>
				<name>點 20</name>
				<styleUrl>#icon-503-DB4436-nodesc</styleUrl>
				<ExtendedData>
				</ExtendedData>
				<Point>
					<coordinates>120.5704879,24.2874962,0.0</coordinates>
				</Point>
			</Placemark>
			<Placemark>
				<name>點 21</name>
				<styleUrl>#icon-503-DB4436-nodesc</styleUrl>
				<ExtendedData>
				</ExtendedData>
				<Point>
					<coordinates>120.57289130000001,24.2858533,0.0</coordinates>
				</Point>
			</Placemark>
			<Placemark>
				<name>點 22</name>
				<styleUrl>#icon-503-DB4436-nodesc</styleUrl>
				<ExtendedData>
				</ExtendedData>
				<Point>
					<coordinates>120.5753803,24.2846797,0.0</coordinates>
				</Point>
			</Placemark>
			<Placemark>
				<name>點 23</name>
				<styleUrl>#icon-503-DB4436-nodesc</styleUrl>
				<ExtendedData>
				</ExtendedData>
				<Point>
					<coordinates>120.57529450000001,24.2819415,0.0</coordinates>
				</Point>
			</Placemark>
			<Placemark>
				<name>點 24</name>
				<styleUrl>#icon-503-DB4436-nodesc</styleUrl>
				<ExtendedData>
				</ExtendedData>
				<Point>
					<coordinates>120.5658531,24.287418,0.0</coordinates>
				</Point>
			</Placemark>
			<Placemark>
				<name>點 25</name>
				<styleUrl>#icon-503-DB4436-nodesc</styleUrl>
				<ExtendedData>
				</ExtendedData>
				<Point>
					<coordinates>120.5659389,24.2837409,0.0</coordinates>
				</Point>
			</Placemark>
			<Placemark>
				<name>點 26</name>
				<styleUrl>#icon-503-DB4436-nodesc</styleUrl>
				<ExtendedData>
				</ExtendedData>
				<Point>
					<coordinates>120.56550979999999,24.280611600000004,0.0</coordinates>
				</Point>
			</Placemark>
			<Placemark>
				<name>點 27</name>
				<styleUrl>#icon-503-DB4436-nodesc</styleUrl>
				<ExtendedData>
				</ExtendedData>
				<Point>
					<coordinates>120.5640507,24.2784207,0.0</coordinates>
				</Point>
			</Placemark>
			<Placemark>
				<name>點 28</name>
				<styleUrl>#icon-503-DB4436-nodesc</styleUrl>
				<ExtendedData>
				</ExtendedData>
				<Point>
					<coordinates>120.56259149999998,24.2762301,0.0</coordinates>
				</Point>
			</Placemark>
			<Placemark>
				<name>點 29</name>
				<styleUrl>#icon-503-DB4436-nodesc</styleUrl>
				<ExtendedData>
				</ExtendedData>
				<Point>
					<coordinates>120.5607891,24.2744305,0.0</coordinates>
				</Point>
			</Placemark>
			<Placemark>
				<name>點 30</name>
				<styleUrl>#icon-503-DB4436-nodesc</styleUrl>
				<ExtendedData>
				</ExtendedData>
				<Point>
					<coordinates>120.5584717,24.2717703,0.0</coordinates>
				</Point>
			</Placemark>
			<Placemark>
				<name>點 31</name>
				<styleUrl>#icon-503-DB4436-nodesc</styleUrl>
				<ExtendedData>
				</ExtendedData>
				<Point>
					<coordinates>120.5600167,24.2700488,0.0</coordinates>
				</Point>
			</Placemark>
			<Placemark>
				<name>點 32</name>
				<styleUrl>#icon-503-DB4436-nodesc</styleUrl>
				<ExtendedData>
				</ExtendedData>
				<Point>
					<coordinates>120.5927611,24.2915253,0.0</coordinates>
				</Point>
			</Placemark>
			<Placemark>
				<name>點 33</name>
				<styleUrl>#icon-503-DB4436-nodesc</styleUrl>
				<ExtendedData>
				</ExtendedData>
				<Point>
					<coordinates>120.59151650000001,24.2896868,0.0</coordinates>
				</Point>
			</Placemark>
			<Placemark>
				<name>點 34</name>
				<styleUrl>#icon-503-DB4436-nodesc</styleUrl>
				<ExtendedData>
				</ExtendedData>
				<Point>
					<coordinates>120.5898856,24.2883568,0.0</coordinates>
				</Point>
			</Placemark>
			<Placemark>
				<name>點 35</name>
				<styleUrl>#icon-503-DB4436-nodesc</styleUrl>
				<ExtendedData>
				</ExtendedData>
				<Point>
					<coordinates>120.58799750000001,24.2870268,0.0</coordinates>
				</Point>
			</Placemark>
			<Placemark>
				<name>點 36</name>
				<styleUrl>#icon-503-DB4436-nodesc</styleUrl>
				<ExtendedData>
				</ExtendedData>
				<Point>
					<coordinates>120.58610920000001,24.2852275,0.0</coordinates>
				</Point>
			</Placemark>
			<Placemark>
				<name>點 37</name>
				<styleUrl>#icon-503-DB4436-nodesc</styleUrl>
				<ExtendedData>
				</ExtendedData>
				<Point>
					<coordinates>120.5845642,24.2825674,0.0</coordinates>
				</Point>
			</Placemark>
			<Placemark>
				<name>點 38</name>
				<styleUrl>#icon-503-DB4436-nodesc</styleUrl>
				<ExtendedData>
				</ExtendedData>
				<Point>
					<coordinates>120.58490750000001,24.2790466,0.0</coordinates>
				</Point>
			</Placemark>
			<Placemark>
				<name>點 39</name>
				<styleUrl>#icon-503-DB4436-nodesc</styleUrl>
				<ExtendedData>
				</ExtendedData>
				<Point>
					<coordinates>120.5857658,24.2765821,0.0</coordinates>
				</Point>
			</Placemark>
			<Placemark>
				<name>點 40</name>
				<styleUrl>#icon-503-DB4436-nodesc</styleUrl>
				<ExtendedData>
				</ExtendedData>
				<Point>
					<coordinates>120.5884696,24.2746652,0.0</coordinates>
				</Point>
			</Placemark>
			<Placemark>
				<name>點 41</name>
				<styleUrl>#icon-503-DB4436-nodesc</styleUrl>
				<ExtendedData>
				</ExtendedData>
				<Point>
					<coordinates>120.5909157,24.2725917,0.0</coordinates>
				</Point>
			</Placemark>
			<Placemark>
				<name>點 42</name>
				<styleUrl>#icon-503-DB4436-nodesc</styleUrl>
				<ExtendedData>
				</ExtendedData>
				<Point>
					<coordinates>120.59533589999998,24.2551035,0.0</coordinates>
				</Point>
			</Placemark>
			<Placemark>
				<name>點 43</name>
				<styleUrl>#icon-503-DB4436-nodesc</styleUrl>
				<ExtendedData>
				</ExtendedData>
				<Point>
					<coordinates>120.598383,24.257138,0.0</coordinates>
				</Point>
			</Placemark>
			<Placemark>
				<name>點 44</name>
				<styleUrl>#icon-503-DB4436-nodesc</styleUrl>
				<ExtendedData>
				</ExtendedData>
				<Point>
					<coordinates>120.5929756,24.2655889,0.0</coordinates>
				</Point>
			</Placemark>
			<Placemark>
				<name>點 45</name>
				<styleUrl>#icon-503-DB4436-nodesc</styleUrl>
				<ExtendedData>
				</ExtendedData>
				<Point>
					<coordinates>120.59477800000002,24.2898042,0.0</coordinates>
				</Point>
			</Placemark>
			<Placemark>
				<name>點 46</name>
				<styleUrl>#icon-503-DB4436-nodesc</styleUrl>
				<ExtendedData>
				</ExtendedData>
				<Point>
					<coordinates>120.59529310000002,24.2871833,0.0</coordinates>
				</Point>
			</Placemark>
			<Placemark>
				<name>點 47</name>
				<styleUrl>#icon-503-DB4436-nodesc</styleUrl>
				<ExtendedData>
				</ExtendedData>
				<Point>
					<coordinates>120.59555060000001,24.28511,0.0</coordinates>
				</Point>
			</Placemark>
			<Placemark>
				<name>點 48</name>
				<styleUrl>#icon-503-DB4436-nodesc</styleUrl>
				<ExtendedData>
				</ExtendedData>
				<Point>
					<coordinates>120.59735310000002,24.2822153,0.0</coordinates>
				</Point>
			</Placemark>
			<Placemark>
				<name>點 49</name>
				<styleUrl>#icon-503-DB4436-nodesc</styleUrl>
				<ExtendedData>
				</ExtendedData>
				<Point>
					<coordinates>120.60224539999999,24.2802595,0.0</coordinates>
				</Point>
			</Placemark>
			<Placemark>
				<name>點 50</name>
				<styleUrl>#icon-503-DB4436-nodesc</styleUrl>
				<ExtendedData>
				</ExtendedData>
				<Point>
					<coordinates>120.6056786,24.2783035,0.0</coordinates>
				</Point>
			</Placemark>
			<Placemark>
				<name>點 51</name>
				<styleUrl>#icon-503-DB4436-nodesc</styleUrl>
				<ExtendedData>
				</ExtendedData>
				<Point>
					<coordinates>120.593319,24.2707139,0.0</coordinates>
				</Point>
			</Placemark>
			<Placemark>
				<name>點 52</name>
				<styleUrl>#icon-503-DB4436-nodesc</styleUrl>
				<ExtendedData>
				</ExtendedData>
				<Point>
					<coordinates>120.5980395,24.2739609,0.0</coordinates>
				</Point>
			</Placemark>
			<Placemark>
				<name>點 53</name>
				<styleUrl>#icon-503-DB4436-nodesc</styleUrl>
				<ExtendedData>
				</ExtendedData>
				<Point>
					<coordinates>120.60018540000002,24.2754476,0.0</coordinates>
				</Point>
			</Placemark>
			<Placemark>
				<name>點 54</name>
				<styleUrl>#icon-503-DB4436-nodesc</styleUrl>
				<ExtendedData>
				</ExtendedData>
				<Point>
					<coordinates>120.6027603,24.276543,0.0</coordinates>
				</Point>
			</Placemark>
			<Placemark>
				<name>點 55</name>
				<styleUrl>#icon-503-DB4436-nodesc</styleUrl>
				<ExtendedData>
				</ExtendedData>
				<Point>
					<coordinates>120.5607033,24.2664496,0.0</coordinates>
				</Point>
			</Placemark>
			<Placemark>
				<name>點 56</name>
				<styleUrl>#icon-503-DB4436-nodesc</styleUrl>
				<ExtendedData>
				</ExtendedData>
				<Point>
					<coordinates>120.5557251,24.268484,0.0</coordinates>
				</Point>
			</Placemark>
			<Placemark>
				<name>點 57</name>
				<styleUrl>#icon-503-DB4436-nodesc</styleUrl>
				<ExtendedData>
				</ExtendedData>
				<Point>
					<coordinates>120.5552959,24.2659019,0.0</coordinates>
				</Point>
			</Placemark>
			<Placemark>
				<name>點 58</name>
				<styleUrl>#icon-503-DB4436-nodesc</styleUrl>
				<ExtendedData>
				</ExtendedData>
				<Point>
					<coordinates>120.5552959,24.2630066,0.0</coordinates>
				</Point>
			</Placemark>
			<Placemark>
				<name>點 59</name>
				<styleUrl>#icon-503-DB4436-nodesc</styleUrl>
				<ExtendedData>
				</ExtendedData>
				<Point>
					<coordinates>120.55933,24.2561989,0.0</coordinates>
				</Point>
			</Placemark>
			<Placemark>
				<name>點 60</name>
				<styleUrl>#icon-503-DB4436-nodesc</styleUrl>
				<ExtendedData>
				</ExtendedData>
				<Point>
					<coordinates>120.5626774,24.2655106,0.0</coordinates>
				</Point>
			</Placemark>
			<Placemark>
				<name>點 61</name>
				<styleUrl>#icon-503-DB4436-nodesc</styleUrl>
				<ExtendedData>
				</ExtendedData>
				<Point>
					<coordinates>120.56439400000001,24.2645716,0.0</coordinates>
				</Point>
			</Placemark>
			<Placemark>
				<name>點 62</name>
				<styleUrl>#icon-503-DB4436-nodesc</styleUrl>
				<ExtendedData>
				</ExtendedData>
				<Point>
					<coordinates>120.5661964,24.2633979,0.0</coordinates>
				</Point>
			</Placemark>
			<Placemark>
				<name>點 63</name>
				<styleUrl>#icon-503-DB4436-nodesc</styleUrl>
				<ExtendedData>
				</ExtendedData>
				<Point>
					<coordinates>120.5662822,24.2611287,0.0</coordinates>
				</Point>
			</Placemark>
			<Placemark>
				<name>點 64</name>
				<styleUrl>#icon-503-DB4436-nodesc</styleUrl>
				<ExtendedData>
				</ExtendedData>
				<Point>
					<coordinates>120.56653979999999,24.2590158,0.0</coordinates>
				</Point>
			</Placemark>
			<Placemark>
				<name>點 65</name>
				<styleUrl>#icon-503-DB4436-nodesc</styleUrl>
				<ExtendedData>
				</ExtendedData>
				<Point>
					<coordinates>120.55735590000002,24.2573727,0.0</coordinates>
				</Point>
			</Placemark>
			<Placemark>
				<name>點 66</name>
				<styleUrl>#icon-503-DB4436-nodesc</styleUrl>
				<ExtendedData>
				</ExtendedData>
				<Point>
					<coordinates>120.56121830000001,24.2555728,0.0</coordinates>
				</Point>
			</Placemark>
			<Placemark>
				<name>點 67</name>
				<styleUrl>#icon-503-DB4436-nodesc</styleUrl>
				<ExtendedData>
				</ExtendedData>
				<Point>
					<coordinates>120.5631924,24.2549468,0.0</coordinates>
				</Point>
			</Placemark>
			<Placemark>
				<name>點 68</name>
				<styleUrl>#icon-503-DB4436-nodesc</styleUrl>
				<ExtendedData>
				</ExtendedData>
				<Point>
					<coordinates>120.56636810000002,24.2558858,0.0</coordinates>
				</Point>
			</Placemark>
			<Placemark>
				<name>點 69</name>
				<styleUrl>#icon-503-DB4436-nodesc</styleUrl>
				<ExtendedData>
				</ExtendedData>
				<Point>
					<coordinates>120.59357640000002,24.2630066,0.0</coordinates>
				</Point>
			</Placemark>
			<Placemark>
				<name>點 70</name>
				<styleUrl>#icon-503-DB4436-nodesc</styleUrl>
				<ExtendedData>
				</ExtendedData>
				<Point>
					<coordinates>120.59391969999999,24.260659100000005,0.0</coordinates>
				</Point>
			</Placemark>
			<Placemark>
				<name>點 71</name>
				<styleUrl>#icon-503-DB4436-nodesc</styleUrl>
				<ExtendedData>
				</ExtendedData>
				<Point>
					<coordinates>120.5944347,24.2577638,0.0</coordinates>
				</Point>
			</Placemark>
			<Placemark>
				<name>點 72</name>
				<styleUrl>#icon-503-DB4436-nodesc</styleUrl>
				<ExtendedData>
				</ExtendedData>
				<Point>
					<coordinates>120.5956363,24.2670756,0.0</coordinates>
				</Point>
			</Placemark>
			<Placemark>
				<name>點 73</name>
				<styleUrl>#icon-503-DB4436-nodesc</styleUrl>
				<ExtendedData>
				</ExtendedData>
				<Point>
					<coordinates>120.59984220000001,24.2697359,0.0</coordinates>
				</Point>
			</Placemark>
			<Placemark>
				<name>點 74</name>
				<styleUrl>#icon-503-DB4436-nodesc</styleUrl>
				<ExtendedData>
				</ExtendedData>
				<Point>
					<coordinates>120.601902,24.2710661,0.0</coordinates>
				</Point>
			</Placemark>
			<Placemark>
				<name>點 75</name>
				<styleUrl>#icon-503-DB4436-nodesc</styleUrl>
				<ExtendedData>
				</ExtendedData>
				<Point>
					<coordinates>120.60645100000002,24.2737655,0.0</coordinates>
				</Point>
			</Placemark>
			<Placemark>
				<name>點 76</name>
				<styleUrl>#icon-503-DB4436-nodesc</styleUrl>
				<ExtendedData>
				</ExtendedData>
				<Point>
					<coordinates>120.60426240000001,24.2720831,0.0</coordinates>
				</Point>
			</Placemark>
			<Placemark>
				<name>點 77</name>
				<styleUrl>#icon-503-DB4436-nodesc</styleUrl>
				<ExtendedData>
				</ExtendedData>
				<Point>
					<coordinates>120.60666560000001,24.270127,0.0</coordinates>
				</Point>
			</Placemark>
			<Placemark>
				<name>點 78</name>
				<styleUrl>#icon-503-DB4436-nodesc</styleUrl>
				<ExtendedData>
				</ExtendedData>
				<Point>
					<coordinates>120.6070948,24.2669581,0.0</coordinates>
				</Point>
			</Placemark>
			<Placemark>
				<name>點 79</name>
				<styleUrl>#icon-503-DB4436-nodesc</styleUrl>
				<ExtendedData>
				</ExtendedData>
				<Point>
					<coordinates>120.6071377,24.2635543,0.0</coordinates>
				</Point>
			</Placemark>
			<Placemark>
				<name>點 80</name>
				<styleUrl>#icon-503-DB4436-nodesc</styleUrl>
				<ExtendedData>
				</ExtendedData>
				<Point>
					<coordinates>120.6013871,24.2584681,0.0</coordinates>
				</Point>
			</Placemark>
			<Placemark>
				<name>點 81</name>
				<styleUrl>#icon-503-DB4436-nodesc</styleUrl>
				<ExtendedData>
				</ExtendedData>
				<Point>
					<coordinates>120.6044769,24.2594854,0.0</coordinates>
				</Point>
			</Placemark>
			<Placemark>
				<name>點 82</name>
				<styleUrl>#icon-503-DB4436-nodesc</styleUrl>
				<ExtendedData>
				</ExtendedData>
				<Point>
					<coordinates>120.6073093,24.260268,0.0</coordinates>
				</Point>
			</Placemark>
			<Placemark>
				<name>點 83</name>
				<styleUrl>#icon-503-DB4436-nodesc</styleUrl>
				<ExtendedData>
				</ExtendedData>
				<Point>
					<coordinates>120.5690289,24.2649629,0.0</coordinates>
				</Point>
			</Placemark>
			<Placemark>
				<name>點 84</name>
				<styleUrl>#icon-503-DB4436-nodesc</styleUrl>
				<ExtendedData>
				</ExtendedData>
				<Point>
					<coordinates>120.57074550000002,24.2663713,0.0</coordinates>
				</Point>
			</Placemark>
			<Placemark>
				<name>點 85</name>
				<styleUrl>#icon-503-DB4436-nodesc</styleUrl>
				<ExtendedData>
				</ExtendedData>
				<Point>
					<coordinates>120.5728054,24.268484,0.0</coordinates>
				</Point>
			</Placemark>
			<Placemark>
				<name>點 86</name>
				<styleUrl>#icon-503-DB4436-nodesc</styleUrl>
				<ExtendedData>
				</ExtendedData>
				<Point>
					<coordinates>120.5747795,24.2702835,0.0</coordinates>
				</Point>
			</Placemark>
			<Placemark>
				<name>點 87</name>
				<styleUrl>#icon-503-DB4436-nodesc</styleUrl>
				<ExtendedData>
				</ExtendedData>
				<Point>
					<coordinates>120.576582,24.2722398,0.0</coordinates>
				</Point>
			</Placemark>
			<Placemark>
				<name>點 88</name>
				<styleUrl>#icon-503-DB4436-nodesc</styleUrl>
				<ExtendedData>
				</ExtendedData>
				<Point>
					<coordinates>120.57829860000001,24.273961000000003,0.0</coordinates>
				</Point>
			</Placemark>
			<Placemark>
				<name>點 90</name>
				<styleUrl>#icon-503-DB4436-nodesc</styleUrl>
				<ExtendedData>
				</ExtendedData>
				<Point>
					<coordinates>120.5830193,24.271535500000002,0.0</coordinates>
				</Point>
			</Placemark>
			<Placemark>
				<name>點 91</name>
				<styleUrl>#icon-503-DB4436-nodesc</styleUrl>
				<ExtendedData>
				</ExtendedData>
				<Point>
					<coordinates>120.58473590000001,24.2698142,0.0</coordinates>
				</Point>
			</Placemark>
			<Placemark>
				<name>點 92</name>
				<styleUrl>#icon-503-DB4436-nodesc</styleUrl>
				<ExtendedData>
				</ExtendedData>
				<Point>
					<coordinates>120.58696750000001,24.2682492,0.0</coordinates>
				</Point>
			</Placemark>
			<Placemark>
				<name>點 93</name>
				<styleUrl>#icon-503-DB4436-nodesc</styleUrl>
				<ExtendedData>
				</ExtendedData>
				<Point>
					<coordinates>120.5890273,24.2666843,0.0</coordinates>
				</Point>
			</Placemark>
			<Placemark>
				<name>點 94</name>
				<styleUrl>#icon-503-DB4436-nodesc</styleUrl>
				<ExtendedData>
				</ExtendedData>
				<Point>
					<coordinates>120.5897141,24.2640239,0.0</coordinates>
				</Point>
			</Placemark>
			<Placemark>
				<name>點 97</name>
				<styleUrl>#icon-503-DB4436-nodesc</styleUrl>
				<ExtendedData>
				</ExtendedData>
				<Point>
					<coordinates>120.56885719999998,24.2613634,0.0</coordinates>
				</Point>
			</Placemark>
			<Placemark>
				<name>點 102</name>
				<styleUrl>#icon-503-DB4436-nodesc</styleUrl>
				<ExtendedData>
				</ExtendedData>
				<Point>
					<coordinates>120.56962970000001,24.2550251,0.0</coordinates>
				</Point>
			</Placemark>
			<Placemark>
				<name>點 103</name>
				<styleUrl>#icon-503-DB4436-nodesc</styleUrl>
				<ExtendedData>
				</ExtendedData>
				<Point>
					<coordinates>120.5722905,24.2572944,0.0</coordinates>
				</Point>
			</Placemark>
			<Placemark>
				<name>點 104</name>
				<styleUrl>#icon-503-DB4436-nodesc</styleUrl>
				<ExtendedData>
				</ExtendedData>
				<Point>
					<coordinates>120.5900573,24.2612851,0.0</coordinates>
				</Point>
			</Placemark>
			<Placemark>
				<name>點 105</name>
				<styleUrl>#icon-503-DB4436-nodesc</styleUrl>
				<ExtendedData>
				</ExtendedData>
				<Point>
					<coordinates>120.55546770000001,24.2592506,0.0</coordinates>
				</Point>
			</Placemark>
			<Placemark>
				<name>點 106</name>
				<styleUrl>#icon-503-DB4436-nodesc</styleUrl>
				<ExtendedData>
				</ExtendedData>
				<Point>
					<coordinates>120.59040069999999,24.2552598,0.0</coordinates>
				</Point>
			</Placemark>
			<Placemark>
				<name>點 98</name>
				<styleUrl>#icon-503-DB4436-nodesc</styleUrl>
				<ExtendedData>
				</ExtendedData>
				<Point>
					<coordinates>120.58121690000002,24.2732569,0.0</coordinates>
				</Point>
			</Placemark>
			<Placemark>
				<name>點 99</name>
				<styleUrl>#icon-503-DB4436-nodesc</styleUrl>
				<ExtendedData>
				</ExtendedData>
				<Point>
					<coordinates>120.574522,24.2592507,0.0</coordinates>
				</Point>
			</Placemark>
			<Placemark>
				<name>點 100</name>
				<styleUrl>#icon-503-DB4436-nodesc</styleUrl>
				<ExtendedData>
				</ExtendedData>
				<Point>
					<coordinates>120.57632449999998,24.2610504,0.0</coordinates>
				</Point>
			</Placemark>
			<Placemark>
				<name>點 101</name>
				<styleUrl>#icon-503-DB4436-nodesc</styleUrl>
				<ExtendedData>
				</ExtendedData>
				<Point>
					<coordinates>120.5782127,24.2635544,0.0</coordinates>
				</Point>
			</Placemark>
			<Placemark>
				<name>點 102</name>
				<styleUrl>#icon-503-DB4436-nodesc</styleUrl>
				<ExtendedData>
				</ExtendedData>
				<Point>
					<coordinates>120.57958599999999,24.2621459,0.0</coordinates>
				</Point>
			</Placemark>
			<Placemark>
				<name>點 103</name>
				<styleUrl>#icon-503-DB4436-nodesc</styleUrl>
				<ExtendedData>
				</ExtendedData>
				<Point>
					<coordinates>120.5813026,24.2602678,0.0</coordinates>
				</Point>
			</Placemark>
			<Placemark>
				<name>點 104</name>
				<styleUrl>#icon-503-DB4436-nodesc</styleUrl>
				<ExtendedData>
				</ExtendedData>
				<Point>
					<coordinates>120.5831051,24.2585463,0.0</coordinates>
				</Point>
			</Placemark>
			<Placemark>
				<name>點 105</name>
				<styleUrl>#icon-503-DB4436-nodesc</styleUrl>
				<ExtendedData>
				</ExtendedData>
				<Point>
					<coordinates>120.5900573,24.2585463,0.0</coordinates>
				</Point>
			</Placemark>
			<Placemark>
				<name>點 106</name>
				<styleUrl>#icon-503-DB4436-nodesc</styleUrl>
				<ExtendedData>
				</ExtendedData>
				<Point>
					<coordinates>120.58490750000001,24.2571378,0.0</coordinates>
				</Point>
			</Placemark>
			<Placemark>
				<name>點 107</name>
				<styleUrl>#icon-503-DB4436-nodesc</styleUrl>
				<ExtendedData>
				</ExtendedData>
				<Point>
					<coordinates>120.59786799999999,24.2680926,0.0</coordinates>
				</Point>
			</Placemark>
			<Placemark>
				<name>點 108</name>
				<styleUrl>#icon-503-DB4436-nodesc</styleUrl>
				<ExtendedData>
				</ExtendedData>
				<Point>
					<coordinates>120.5961943,24.272357,0.0</coordinates>
				</Point>
			</Placemark>
			<Placemark>
				<name>點 109</name>
				<styleUrl>#icon-503-DB4436-nodesc</styleUrl>
				<ExtendedData>
				</ExtendedData>
				<Point>
					<coordinates>120.5995846,24.280807000000003,0.0</coordinates>
				</Point>
			</Placemark>
			<Placemark>
				<name>點 110</name>
				<styleUrl>#icon-503-DB4436-nodesc</styleUrl>
				<ExtendedData>
				</ExtendedData>
				<Point>
					<coordinates>120.55988789999999,24.2730222,0.0</coordinates>
				</Point>
			</Placemark>
			<Placemark>
				<name>點 111</name>
				<styleUrl>#icon-503-DB4436-nodesc</styleUrl>
				<ExtendedData>
				</ExtendedData>
				<Point>
					<coordinates>120.56842809999999,24.2942242,0.0</coordinates>
				</Point>
			</Placemark>
			<Placemark>
				<name>點 114</name>
				<styleUrl>#icon-503-DB4436-nodesc</styleUrl>
				<ExtendedData>
				</ExtendedData>
				<Point>
					<coordinates>120.5583,24.2680927,0.0</coordinates>
				</Point>
			</Placemark>
			<Placemark>
				<name>點 115</name>
				<styleUrl>#icon-503-DB4436-nodesc</styleUrl>
				<ExtendedData>
				</ExtendedData>
				<Point>
					<coordinates>120.56636810000002,24.2534599,0.0</coordinates>
				</Point>
			</Placemark>
			<Placemark>
				<name>點 116</name>
				<styleUrl>#icon-503-DB4436-nodesc</styleUrl>
				<ExtendedData>
				</ExtendedData>
				<Point>
					<coordinates>120.5875683,24.2555728,0.0</coordinates>
				</Point>
			</Placemark>
			<Placemark>
				<name>點 117</name>
				<styleUrl>#icon-503-DB4436-nodesc</styleUrl>
				<ExtendedData>
				</ExtendedData>
				<Point>
					<coordinates>120.5752087,24.2801421,0.0</coordinates>
				</Point>
			</Placemark>
			<Placemark>
				<name>點 118</name>
				<styleUrl>#icon-503-DB4436-nodesc</styleUrl>
				<ExtendedData>
				</ExtendedData>
				<Point>
					<coordinates>120.575552,24.2770907,0.0</coordinates>
				</Point>
			</Placemark>
			<Placemark>
				<name>點 119</name>
				<styleUrl>#icon-503-DB4436-nodesc</styleUrl>
				<ExtendedData>
				</ExtendedData>
				<Point>
					<coordinates>120.575037,24.2748217,0.0</coordinates>
				</Point>
			</Placemark>
			<Placemark>
				<name>點 120</name>
				<styleUrl>#icon-503-DB4436-nodesc</styleUrl>
				<ExtendedData>
				</ExtendedData>
				<Point>
					<coordinates>120.56885719999998,24.2585464,0.0</coordinates>
				</Point>
			</Placemark>
			<Placemark>
				<name>點 121</name>
				<styleUrl>#icon-503-DB4436-nodesc</styleUrl>
				<ExtendedData>
				</ExtendedData>
				<Point>
					<coordinates>120.5728054,24.2732569,0.0</coordinates>
				</Point>
			</Placemark>
			<Placemark>
				<name>點 122</name>
				<styleUrl>#icon-503-DB4436-nodesc</styleUrl>
				<ExtendedData>
				</ExtendedData>
				<Point>
					<coordinates>120.57091710000002,24.2721615,0.0</coordinates>
				</Point>
			</Placemark>
			<Placemark>
				<name>點 123</name>
				<styleUrl>#icon-503-DB4436-nodesc</styleUrl>
				<ExtendedData>
				</ExtendedData>
				<Point>
					<coordinates>120.5690289,24.2707531,0.0</coordinates>
				</Point>
			</Placemark>
			<Placemark>
				<name>點 124</name>
				<styleUrl>#icon-503-DB4436-nodesc</styleUrl>
				<ExtendedData>
				</ExtendedData>
				<Point>
					<coordinates>120.5673122,24.2695794,0.0</coordinates>
				</Point>
			</Placemark>
			<Placemark>
				<name>點 125</name>
				<styleUrl>#icon-503-DB4436-nodesc</styleUrl>
				<ExtendedData>
				</ExtendedData>
				<Point>
					<coordinates>120.56550979999999,24.268171,0.0</coordinates>
				</Point>
			</Placemark>
			<Placemark>
				<name>點 126</name>
				<styleUrl>#icon-503-DB4436-nodesc</styleUrl>
				<ExtendedData>
				</ExtendedData>
				<Point>
					<coordinates>120.56190490000002,24.2698924,0.0</coordinates>
				</Point>
			</Placemark>
			<Placemark>
				<name>點 127</name>
				<styleUrl>#icon-503-DB4436-nodesc</styleUrl>
				<ExtendedData>
				</ExtendedData>
				<Point>
					<coordinates>120.5639648,24.2694229,0.0</coordinates>
				</Point>
			</Placemark>
		</Folder>
		<Style id='icon-503-DB4436'>
			<IconStyle>
				<color>ff3644DB</color>
				<scale>1.1</scale>
				<Icon>
					<href>http://www.gstatic.com/mapspro/images/stock/503-wht-blank_maps.png</href>
				</Icon>
				<hotSpot x='16' y='31' xunits='pixels' yunits='insetPixels'>
				</hotSpot>
			</IconStyle>
		</Style>
		<Style id='icon-503-DB4436-nodesc-normal'>
			<IconStyle>
				<color>ff3644DB</color>
				<scale>1.1</scale>
				<Icon>
					<href>http://www.gstatic.com/mapspro/images/stock/503-wht-blank_maps.png</href>
				</Icon>
				<hotSpot x='16' y='31' xunits='pixels' yunits='insetPixels'>
				</hotSpot>
			</IconStyle>
			<LabelStyle>
				<scale>0.0</scale>
			</LabelStyle>
			<BalloonStyle>
				<text><![CDATA[<h3>$[name]</h3>]]></text>
			</BalloonStyle>
		</Style>
		<Style id='icon-503-DB4436-nodesc-highlight'>
			<IconStyle>
				<color>ff3644DB</color>
				<scale>1.1</scale>
				<Icon>
					<href>http://www.gstatic.com/mapspro/images/stock/503-wht-blank_maps.png</href>
				</Icon>
				<hotSpot x='16' y='31' xunits='pixels' yunits='insetPixels'>
				</hotSpot>
			</IconStyle>
			<LabelStyle>
				<scale>1.1</scale>
			</LabelStyle>
			<BalloonStyle>
				<text><![CDATA[<h3>$[name]</h3>]]></text>
			</BalloonStyle>
		</Style>
		<StyleMap id='icon-503-DB4436-nodesc'>
			<Pair>
				<key>normal</key>
				<styleUrl>#icon-503-DB4436-nodesc-normal</styleUrl>
			</Pair>
			<Pair>
				<key>highlight</key>
				<styleUrl>#icon-503-DB4436-nodesc-highlight</styleUrl>
			</Pair>
		</StyleMap>
	</Document>
</kml>